주소,위도,경도
Address,주소를 변환할 수 없음,주소를 변환할 수 없음
강원도 강릉시 경강로2103번길 10 (임당동),37.7559451311382,128.896226738655
경기도 부천시 부흥로374번길 25-6 (심곡동),37.4905880745374,126.782661922809
강원도 인제군 상남면 귀미말길 82,37.8732840365755,128.288735592627
부산광역시 동래구 명륜로92번길 25 (수안동),35.2031628535415,129.084129208831
서울특별시 광진구 아차산로76가길 12 (광장동),37.5473112429539,127.107200169131
울산광역시 울주군 상북면 알프스온천2길 46,35.5530886926553,129.075926606848
"인천광역시 옹진군 영흥면 영흥서로 523, 해송펜션",37.2747842071544,126.452928215911
경상남도 밀양시 단장면 고례2길 15,35.4907525191553,128.929534909829
강원도 강릉시 율곡로2868번길 1 (교동),37.7596714384768,128.89569656699
"전라남도 광양시 옥룡면 묵방길 10, 외1필지(묵방길8)",주소를 변환할 수 없음,주소를 변환할 수 없음
"경기도 가평군 상면 수목원로386번길 14-12, 1동(1~2층), 2동(1층), 3동(1층)",37.7487206413737,127.351357994534
"부산광역시 수영구 광안해변로278번길 42, 오션브릿지 B동 8~10층 (민락동)",35.1539704411162,129.124515022228
"광주광역시 북구 서하로183번길 56, 1, 3~10층 (오치동)",주소를 변환할 수 없음,주소를 변환할 수 없음
제주특별자치도 제주시 원노형2길 19-2 (노형동),33.4843734695037,126.481354891253
강원도 횡성군 둔내면 경강로구두미1길 102-16,37.5749404914132,128.257422890246
충청남도 청양군 남양면 만수로 1202-20,36.3716699857447,126.749007678638
부산광역시 강서구 미음산단5로 48 (미음동),35.1596479016912,128.863955492339
"서울특별시 중구 퇴계로20길 35, 지하1~지상4층 (남산동2가)",37.5588177459084,126.986426055043
강원도 양양군 강현면 동해대로 3339,38.1363540559425,128.617074723302
경상북도 경주시 진현로1길 4 (진현동),35.782024924159,129.324314871125
전라북도 전주시 덕진구 아중4길 14-7 (우아동2가),35.8308681887025,127.173286047213
"경기도 가평군 가평읍 태봉두밀로406번길 14-43, A,B동 1층",37.8187516650236,127.458757645261
충청남도 보령시 고잠2길 12-11 (신흑동),36.3116850055884,126.5164894262
"강원도 양양군 서면 얼음골길 2, A,B,C,D,E동",37.9630452395232,128.515944118241
"울산광역시 북구 신답1길 9-7, 지상1~6층 (상안동)",35.6285263991275,129.344642625614
서울특별시 영등포구 영중로4길 9-6 (영등포동3가),37.5178170908806,126.907530096387
경상남도 합천군 대병면 회양관광단지길 61,35.5245739026473,128.015598039971
부산광역시 해운대구 송정해변로 6-4 (송정동),35.1813483785472,129.205222173834
경상남도 하동군 화개면 화개로 41,35.1919917455705,127.624172990497
"전라남도 순천시 자경2길 22-26, 1층 (조곡동)",34.9497717298677,127.502065681332
서울특별시 종로구 창경궁로 145-3 (원남동),37.5752585953358,126.996846381519
부산광역시 수영구 망미번영로52번길 112 (수영동),35.1685984644777,129.114123294782
"부산광역시 동구 대영로243번길 89, 1층,5~11층 (초량동)",35.1159270903187,129.03932638541
제주특별자치도 서귀포시 색달중앙로 38 (색달동),33.2585732100881,126.413963378095
경상북도 영주시 풍기읍 죽령로 1398-36,36.887139592252,128.480087124922
"충청남도 태안군 남면 청포대길 82, 1,2,3,5동",주소를 변환할 수 없음,주소를 변환할 수 없음
"경상남도 밀양시 중앙로 51, 가곡상가남천빌딩 2층 (가곡동)",35.4730545922041,128.771564974384
"서울특별시 동대문구 고산자로 393-5, 지상3층~6층 (용두동)",37.574675186704,127.03764830443
충청남도 태안군 남면 진산2길 188,36.7013887993004,126.270408157823
"경상남도 진주시 남강로673번길 16, 골든튤립남강 4층-16층 (동성동)",35.1916536858339,128.086542748487
"충청남도 태안군 원북면 신두해변길 136-3, 1,2층",36.8361449908464,126.184120075801
충청남도 태안군 소원면 모항항길 133-3,36.7758475977322,126.136979914285
경상남도 김해시 가락로 108-11 (서상동),35.2363019076872,128.881417507281
서울특별시 중구 퇴계로 115 (충무로1가),37.56105243357,126.984514234793
"충청남도 서산시 팔봉면 호리1길 132-10, A동, B동(201,202,301,302호)",36.8608585973982,126.344465872071
부산광역시 연제구 중앙대로1124번길 30 (연산동),35.1880538874174,129.082755686561
"부산광역시 중구 비프광장로 14-2, 3.4층 (남포동6가)",35.0983479660448,129.026897910525
"경상남도 거창군 마리면 송계로 13, 장풍모텔",35.7317157428677,127.851807123152
"경상남도 고성군 고성읍 월평1길 81-3, 봄 무인텔",34.941433169246,128.348197350606
경상북도 예천군 호명면 강변로 586,36.6602286423577,128.514429879508
강원도 홍천군 서면 도롱골길 229,37.6935697566933,127.721343870066
인천광역시 옹진군 대청면 대청북로85번길 16,37.842287910577,124.706443061133
부산광역시 해운대구 해운대해변로221번길 22 (우동),35.1602365121875,129.156535290897
"강원도 태백시 통리길 51, 고릴라하우스 3층 (통동)",37.1719068372002,129.038742923904
"경기도 가평군 상면 임초밤안골로 115-41, 1~2층",37.7600688028362,127.372683183673
충청남도 태안군 고남면 대야로 250,36.4587156255443,126.410234645502
"울산광역시 울주군 서생면 진하9길 38, 2층",35.3890297999299,129.345717259966
강원도 강릉시 사천면 진리항구2길 5,37.8365517896937,128.874611941372
경상북도 구미시 송원서로6길 58 (원평동),36.1227804170838,128.349552920952
"경기도 가평군 상면 임초밤안골로 115-46, 1층~2층",37.7600713140982,127.373256175872
충청남도 태안군 고남면 빗독2길 28-49,36.4289033896299,126.407061823748
"경상북도 의성군 의성읍 군청길 11-1, 2~3층",36.3532052638975,128.695675957529
"경기도 수원시 팔달구 효원로307번길 27, 포포인츠 바이 쉐라톤 수원 3~15층 (인계동)",37.2622138535336,127.035606189007
"광주광역시 북구 대자로 99-4 (운암동, 3층, 4층, 5층)",35.1732933925234,126.883513545275
광주광역시 북구 중가로51번길 2 (유동),35.1595509580291,126.906073749141
광주광역시 동구 중앙로160번길 16-17 (불로동),35.1467041540536,126.914109474081
광주광역시 동구 제봉로222번길 9-1 (대인동),35.1557276939027,126.91426330156
광주광역시 동구 동계천로6번길 14-1 (대인동),35.1553832260347,126.913673531538
광주광역시 동구 남문로 694-12 (학동),35.1325026327837,126.929445410211
광주광역시 동구 동명로 68 (동명동),35.150873897889,126.927716436246
광주광역시 동구 동명로20번길 20 (동명동),35.1503701888455,126.925584549312
광주광역시 동구 제봉로222번길 8 (대인동),35.1555049384344,126.914349141207
광주광역시 동구 제봉로222번길 10-22 (대인동),35.1549265027845,126.915199325596
"광주광역시 동구 양림로119번길 17-5 (학동,(1,2층))",35.1410246680245,126.919483299616
"광주광역시 동구 제봉로222번길 6-11 (대인동,(1,2,3층))",35.1550912275681,126.91462351245
광주광역시 동구 지호로164번길 14-10 (지산동),35.1487597375332,126.946834844587
"광주광역시 동구 천변우로 409-6 (불로동,외1)",35.1451759802736,126.914228718047
광주광역시 동구 중앙로160번길 13 (황금동),35.1476930389561,126.914621802198
광주광역시 동구 중앙로 261-5 (계림동),35.1552649505363,126.920223480238
"광주광역시 동구 독립로 282-7, 지상3층 (대인동)",35.1560901093647,126.913346382369
광주광역시 동구 양림로115번길 3 (학동),35.1399030140089,126.92030321142
광주광역시 동구 양림로115번길 15 (학동),35.140522609065,126.919077020779
"광주광역시 동구 서석로 85, 2~3층 (대의동)",주소를 변환할 수 없음,주소를 변환할 수 없음
광주광역시 동구 무등로321번길 24 (계림동),35.1638633781766,126.919000453584
광주광역시 동구 제봉로213번길 10-3 (대인동),35.1540269271026,126.913263514326
광주광역시 동구 구성로144번길 5 (수기동),35.1493194398666,126.910724010708
"광주광역시 동구 서석로 23-13, 1~2층 (불로동)",35.1460336528691,126.915939629078
광주광역시 동구 양림로119번길 15 (학동),35.1409815133064,126.919922378738
대구광역시 동구 효동로 9 (효목동),35.8791434332418,128.648779343953
대구광역시 동구 효동로 1 (효목동),35.8784978760826,128.649073557324
대구광역시 동구 동대구로85길 7-4 (신천동),35.8709738857494,128.62422681798
대구광역시 동구 신암남로 121 (신암동),35.8810278049858,128.628869803375
대구광역시 동구 동촌로 80 (검사동),35.8878183513926,128.650604553418
대구광역시 동구 효동로 28 (효목동),35.8807190481648,128.648097918605
대구광역시 동구 해동로 200 (검사동),35.8858358844223,128.650347025198
대구광역시 동구 동부로22길 80 (신천동),35.8696113237898,128.627045996746
대구광역시 동구 동부로26길 63 (신천동),35.870225239339,128.628351470232
대구광역시 동구 동부로32길 28 (신천동),35.8761482713046,128.629730842442
"대구광역시 동구 안심로 471 (괴전동,, 151-7)",35.8719433792304,128.73506740212
대구광역시 동구 파계로6길 29 (지묘동),35.9399257485616,128.639800585996
대구광역시 동구 동부로24길 41 (신천동),35.872233212518,128.627522884401
대구광역시 동구 동부로22길 73 (신천동),35.8701318424905,128.627516657377
대구광역시 동구 동촌로11길 5-41 (입석동),35.8903827857176,128.648945832552
대구광역시 동구 아양로 75-2 (신암동),35.8832419474573,128.622142320222
대구광역시 동구 동부로22길 86 (신천동),35.8688881101604,128.627142806472
대구광역시 동구 신암남로24길 17-10 (신암동),35.88139947132,128.631170737241
대구광역시 동구 효동로 37 (효목동),35.8809532487997,128.646968466438
대구광역시 동구 동부로28길 17 (신천동),35.8745407719749,128.628445776914
"대구광역시 동구 동부로26길 32, 1~3층 (신천동)",주소를 변환할 수 없음,주소를 변환할 수 없음
대구광역시 동구 팔공산로185길 35 (용수동),35.9896917544458,128.693219524349
대구광역시 동구 팔공산로185길 53 (용수동),35.9903355366553,128.694799808407
대구광역시 동구 효동로 19-1 (효목동),35.8800106245659,128.64827169728
대구광역시 동구 공항로 221 (지저동),35.8991086837334,128.639261532187
대구광역시 동구 반야월로 228-1 (동호동),35.8717141360937,128.71340055904
대구광역시 서구 달서로 251 (비산동),35.8846097009906,128.573136786001
대구광역시 서구 서대구로 360-7 (비산동),35.888315158695,128.561042382726
대구광역시 서구 서대구로 57-8 (내당동),35.8630217117812,128.555635911032
대구광역시 동구 갓바위로 246-3 (능성동),35.9704475800604,128.727950647302
대구광역시 동구 갓바위로 246-3 (능성동),35.9704475800604,128.727950647302
대구광역시 동구 효동로 61 (효목동),35.8822905991139,128.644649114099
대구광역시 동구 아양로22길 36-1 (신암동),35.8813579875023,128.627034688643
대구광역시 동구 동촌로 200 (방촌동),35.8824102975974,128.662109053984
대구광역시 동구 아양로 172-1 (신암동),35.8852042217801,128.631908867682
대구광역시 동구 아양로 331-1 (입석동),35.893769462065,128.644093168092
"대구광역시 동구 신암남로24길 17-1 (신암동,외 1필지)",35.8811357492292,128.630305072744
대구광역시 서구 국채보상로42길 15 (평리동),35.8688428712678,128.554528647333
대구광역시 서구 서대구로 322 (비산동),35.8862903054301,128.558071074388
대구광역시 서구 국채보상로46길 22 (평리동),35.8684947193621,128.555930446904
대구광역시 서구 팔달로 180 (원대동3가),35.8882687885087,128.569825174391
대구광역시 서구 국채보상로46길 8 (평리동),35.8697227086557,128.555680440128
대구광역시 서구 서대구로11길 5 (내당동),35.8624749504396,128.555603747666
대구광역시 서구 국채보상로46길 6-1 (평리동),35.8699643719144,128.555619732366
대구광역시 서구 달서천로41길 21-1 (비산동),35.8849798788803,128.557715296257
대구광역시 서구 달서로 68 (비산동),35.8682144466444,128.571312555232
대구광역시 서구 국채보상로42길 23 (평리동),35.868210045423,128.554657000352
대구광역시 서구 국채보상로46길 42 (평리동),35.86687271052,128.556231971674
대구광역시 서구 평리로 321 (평리동),35.8642075213994,128.558368974181
대구광역시 서구 문화로 241 (평리동),35.8758138068225,128.558963015726
대구광역시 서구 달서천로41길 71-3 (비산동),35.8883512446379,128.561170996469
대구광역시 서구 달서로 104 (비산동),35.8714378481265,128.571374439826
대구광역시 서구 평리로62길 14 (내당동),35.8625781587564,128.557208215455
대구광역시 서구 서대구로25길 5 (평리동),35.869403049522,128.55366317715
대구광역시 서구 달구벌대로375길 20-1 (내당동),35.8625731158308,128.570504178811
대구광역시 동구 반야월로 7 (용계동),35.874418415102,128.689100582708
대구광역시 동구 율하동로24길 39 (신기동),35.8697458843839,128.706826053761
대구광역시 동구 효목로 50 (효목동),35.8775987430105,128.640261539732
대구광역시 서구 달서천로41길 9 (비산동),35.8838006690913,128.557268308279
대구광역시 서구 평리로62길 16 (내당동),35.8623671783161,128.557216818623
대구광역시 서구 서대구로 279 (비산동),35.8829699675601,128.555629359611
대구광역시 서구 문화로 340 (비산동),35.8758134032451,128.569855272168
대구광역시 서구 서대구로 362 (비산동),35.8886080094058,128.560940048894
대구광역시 동구 팔공로47길 38 (봉무동),35.9201576027666,128.63675701213
대구광역시 동구 효동로2길 67 (효목동),35.8786782874394,128.655184583399
대구광역시 동구 팔공로 525 (지묘동),35.945004026725,128.646514725063
대구광역시 동구 신암남로24길 17-14 (신암동),35.8815719079371,128.631266622505
대구광역시 동구 반야월로30길 6 (신기동),35.8723555582561,128.704598306121
대구광역시 서구 국채보상로45길 2 (평리동),35.8710017070631,128.556014456292
대구광역시 서구 국채보상로42길 17 (평리동),35.8686066913428,128.554583486309
대구광역시 서구 서대구로21길 6 (평리동),35.8680350812833,128.55469576347
대구광역시 서구 옥산로 20-1 (원대동3가),35.8864156036024,128.578142635104
대구광역시 서구 서대구로 47 (내당동),35.8622685726823,128.555994485531
대구광역시 서구 서대구로 362-6 (비산동),35.8884235997436,128.561102207506
대구광역시 서구 서대구로 167 (평리동),35.8729423256012,128.554553382621
대구광역시 서구 국채보상로67길 5-1 (평리동),35.8726914825052,128.566894171445
대구광역시 서구 국채보상로42길 8 (평리동),35.8694878750498,128.554058090839
"대구광역시 서구 서대구로63안길 15, 2층 (비산동)",35.8858586823673,128.555615438025
대구광역시 서구 국채보상로48길 10-12 (평리동),35.869996453315,128.556155334648
대구광역시 서구 국채보상로42길 20 (평리동),35.8684421214467,128.554334377857
대구광역시 서구 서대구로 281 (비산동),35.8831379094275,128.555534424082
대구광역시 서구 서대구로 351-5 (비산동),35.8886799703736,128.559472814459
대구광역시 서구 서대구로11길 3 (내당동),35.8625391676615,128.555787333364
대구광역시 서구 서대구로 117 (평리동),35.8683657945924,128.554891322267
"대구광역시 동구 동부로26길 53 (신천동,,7)",35.8712096445514,128.628198457758
대구광역시 동구 동부로30길 100-1 (신천동),35.8679849125106,128.629036427305
대구광역시 동구 팔공산로185길 45 (용수동),35.9905599683308,128.694068803591
대구광역시 동구 팔공산로185길 33-10 (용수동),35.9906751708493,128.692534120877
대구광역시 동구 팔공산로185길 33-6 (용수동),35.9903134847667,128.692788071345
대구광역시 서구 팔달로 154 (비산동),35.888794877034,128.566954965367
대구광역시 동구 해동로 8 (지저동),35.8972452261466,128.637762952144
대구광역시 동구 아양로14길 5 (신암동),35.8823475020085,128.622647502677
대구광역시 동구 파계로138길 28 (중대동),35.9914637826548,128.639392640725
"대구광역시 동구 팔공산로185길 55-1, 1,2층 (용수동)",35.9900325384248,128.694981489583
대구광역시 동구 팔공산로185길 39 (용수동),35.9899675018122,128.693487095803
대구광역시 서구 달서천로57안길 9-30 (비산동),35.8890276688876,128.564430330349
대구광역시 동구 신암남로24길 17-3 (신암동),35.8812783701162,128.630413410678
대구광역시 동구 동부로26길 45 (신천동),35.8718615835093,128.628121233259
대구광역시 동구 동부로 41 (신천동),35.8747036890527,128.617008587687
대구광역시 동구 팔공산로185길 33-2 (용수동),35.9898945342182,128.693115307102
대구광역시 동구 동대구로 462-3 (신천동),35.8720366146428,128.626456314814
대구광역시 동구 효목로 30-5 (효목동),35.8761480694281,128.639920276284
대구광역시 동구 동부로30길 30 (신천동),35.8743248870778,128.628609873435
대구광역시 동구 파계로138길 34 (중대동),35.9918270333103,128.639609507331
대구광역시 동구 파계로138길 36 (중대동),35.9919528930621,128.639743288276
대구광역시 동구 동대구로 484-4 (신천동),35.8733368797466,128.626115975578
대구광역시 서구 서대구로 320 (비산동),35.8861082689425,128.558064517835
대구광역시 서구 서대구로 294-5 (비산동),35.8840726903076,128.557132005229
대구광역시 서구 서대구로 70-6 (평리동),35.8641018570592,128.556579765196
대구광역시 서구 국채보상로42길 27 (평리동),35.8678326261479,128.554734985726
대구광역시 서구 서대구로 287-9 (비산동),35.8833289519515,128.555715334467
대구광역시 동구 동북로 387 (신암동),35.8877654594741,128.63065294463
대구광역시 동구 동부로26길 56 (신천동),35.8709002640732,128.627727898314
대구광역시 동구 효동로6길 19-7 (효목동),35.8816112885412,128.649034577774
대구광역시 동구 동부로30길 86 (신천동),35.8693066169267,128.628823460887
대구광역시 동구 신암남로 92 (신암동),35.879875915893,128.625861551304
대구광역시 서구 서대구로61길 10 (비산동),35.8856682119096,128.556565710193
대구광역시 서구 국채보상로46길 55 (평리동),35.8657160362914,128.55672259971
대구광역시 서구 국채보상로 180 (중리동),35.869442237317,128.550868073374
대구광역시 서구 고성로 6 (비산동),35.8881953570772,128.569010670369
대구광역시 서구 국채보상로46길 6 (평리동),35.8701120542408,128.55562095891
대구광역시 서구 서대구로61길 7-8 (비산동),35.8855074954834,128.55613091297
대구광역시 서구 국채보상로46길 35-1 (평리동),35.8673142796776,128.556481846991
대구광역시 동구 신암남로 134 (신암동),35.8813713182134,128.63023781649
대구광역시 동구 동대구로 568 (신암동),35.8809402918782,128.626883081934
대구광역시 동구 아양로 324 (입석동),35.8929025633548,128.644554435595
대구광역시 동구 효동로6길 32 (효목동),35.8816819039896,128.650761985943
대구광역시 동구 동촌로 297 (방촌동),35.8793355397131,128.672215991505
대구광역시 동구 동부로22길 40 (신천동),35.8730911885999,128.626524928998
대구광역시 동구 반야월로 5 (용계동),35.8744461041769,128.688951478614
대구광역시 동구 동부로22길 35 (신천동),35.8735753316146,128.627133151651
대구광역시 동구 효동로6길 31 (효목동),35.8815197997433,128.649915416372
대구광역시 동구 율암로 164 (상매동),35.8889047003188,128.705958537141
대구광역시 동구 동대구로 462-1 (신천동),35.8720363934138,128.626306289182
대구광역시 동구 동부로30길 3-16 (신천동),35.8765786938543,128.62945565624
대구광역시 동구 파계로138길 38 (중대동),35.9922018309532,128.639897913645
대구광역시 동구 신암남로 121-1 (신암동),35.8811846643332,128.628812114689
대구광역시 동구 반야월로 174 (신기동),35.8722753976782,128.707386732602
대구광역시 동구 팔공산로185길 33-4 (용수동),35.990128912581,128.692943018792
대구광역시 동구 효동로2길 57-6 (효목동),35.8795121248518,128.654614309127
대구광역시 동구 효동로6길 82 (효목동),35.8817123296352,128.651177300313
대구광역시 동구 갓바위로 246-13 (능성동),35.9696487134141,128.728428295139
대구광역시 서구 국채보상로48길 70-15 (평리동),35.8644053787515,128.558135492151
대구광역시 서구 평리로 316 (내당동),35.8637595320839,128.558009927454
대구광역시 서구 서대구로 200 (평리동),35.8757732836817,128.555214467289
대구광역시 서구 서대구로 287-8 (비산동),35.8835366579118,128.555681194294
대구광역시 서구 평리로 310 (내당동),35.8636374844859,128.557505153714
대구광역시 서구 큰장로 33 (내당동),35.8629811908064,128.573875006262
대구광역시 서구 달서천로41길 79 (비산동),35.8886508908353,128.562001345887
대구광역시 서구 서대구로 370-1 (비산동),35.8888515025478,128.561806063342
대구광역시 동구 반야월로34길 3 (신기동),35.8720185757517,128.70705715758
대구광역시 동구 동부로28길 7 (신천동),35.8753854758505,128.628500602613
대구광역시 동구 동부로28길 15-1 (신천동),35.8746519355018,128.628448495282
대구광역시 동구 동부로30길 100 (신천동),35.8679460680584,128.629222844279
대구광역시 동구 동대구로 570 (신암동),35.8810650313931,128.626775014943
대구광역시 동구 해동로6길 8 (지저동),35.8951905380934,128.636937957819
"02.9.13일토지합병)-1099,1087에서1087)"", ",주소를 변환할 수 없음,주소를 변환할 수 없음
", ",주소를 변환할 수 없음,주소를 변환할 수 없음
", ",주소를 변환할 수 없음,주소를 변환할 수 없음
", ",주소를 변환할 수 없음,주소를 변환할 수 없음
", ",주소를 변환할 수 없음,주소를 변환할 수 없음
", ",주소를 변환할 수 없음,주소를 변환할 수 없음
", ",주소를 변환할 수 없음,주소를 변환할 수 없음
", ",주소를 변환할 수 없음,주소를 변환할 수 없음
", ",주소를 변환할 수 없음,주소를 변환할 수 없음
", ",주소를 변환할 수 없음,주소를 변환할 수 없음
", ",주소를 변환할 수 없음,주소를 변환할 수 없음
", ",주소를 변환할 수 없음,주소를 변환할 수 없음
", ",주소를 변환할 수 없음,주소를 변환할 수 없음
", ",주소를 변환할 수 없음,주소를 변환할 수 없음
", ",주소를 변환할 수 없음,주소를 변환할 수 없음
", ",주소를 변환할 수 없음,주소를 변환할 수 없음
", ",주소를 변환할 수 없음,주소를 변환할 수 없음
", ",주소를 변환할 수 없음,주소를 변환할 수 없음
", ",주소를 변환할 수 없음,주소를 변환할 수 없음
", ",주소를 변환할 수 없음,주소를 변환할 수 없음
", ",주소를 변환할 수 없음,주소를 변환할 수 없음
", ",주소를 변환할 수 없음,주소를 변환할 수 없음
", ",주소를 변환할 수 없음,주소를 변환할 수 없음
", ",주소를 변환할 수 없음,주소를 변환할 수 없음
", ",주소를 변환할 수 없음,주소를 변환할 수 없음
", ",주소를 변환할 수 없음,주소를 변환할 수 없음
", ",주소를 변환할 수 없음,주소를 변환할 수 없음
", ",주소를 변환할 수 없음,주소를 변환할 수 없음
", ",주소를 변환할 수 없음,주소를 변환할 수 없음
", ",주소를 변환할 수 없음,주소를 변환할 수 없음
", ",주소를 변환할 수 없음,주소를 변환할 수 없음
", ",주소를 변환할 수 없음,주소를 변환할 수 없음
", ",주소를 변환할 수 없음,주소를 변환할 수 없음
", ",주소를 변환할 수 없음,주소를 변환할 수 없음
", ",주소를 변환할 수 없음,주소를 변환할 수 없음
", ",주소를 변환할 수 없음,주소를 변환할 수 없음
", ",주소를 변환할 수 없음,주소를 변환할 수 없음
", ",주소를 변환할 수 없음,주소를 변환할 수 없음
", ",주소를 변환할 수 없음,주소를 변환할 수 없음
", ",주소를 변환할 수 없음,주소를 변환할 수 없음
", ",주소를 변환할 수 없음,주소를 변환할 수 없음
", ",주소를 변환할 수 없음,주소를 변환할 수 없음
", ",주소를 변환할 수 없음,주소를 변환할 수 없음
", ",주소를 변환할 수 없음,주소를 변환할 수 없음
", ",주소를 변환할 수 없음,주소를 변환할 수 없음
", ",주소를 변환할 수 없음,주소를 변환할 수 없음
", ",주소를 변환할 수 없음,주소를 변환할 수 없음
", ",주소를 변환할 수 없음,주소를 변환할 수 없음
", ",주소를 변환할 수 없음,주소를 변환할 수 없음
", ",주소를 변환할 수 없음,주소를 변환할 수 없음
", ",주소를 변환할 수 없음,주소를 변환할 수 없음
", ",주소를 변환할 수 없음,주소를 변환할 수 없음
", ",주소를 변환할 수 없음,주소를 변환할 수 없음
", ",주소를 변환할 수 없음,주소를 변환할 수 없음
", ",주소를 변환할 수 없음,주소를 변환할 수 없음
", ",주소를 변환할 수 없음,주소를 변환할 수 없음
", ",주소를 변환할 수 없음,주소를 변환할 수 없음
", ",주소를 변환할 수 없음,주소를 변환할 수 없음
", ",주소를 변환할 수 없음,주소를 변환할 수 없음
", ",주소를 변환할 수 없음,주소를 변환할 수 없음
", ",주소를 변환할 수 없음,주소를 변환할 수 없음
", ",주소를 변환할 수 없음,주소를 변환할 수 없음
", ",주소를 변환할 수 없음,주소를 변환할 수 없음
", ",주소를 변환할 수 없음,주소를 변환할 수 없음
", ",주소를 변환할 수 없음,주소를 변환할 수 없음
", ",주소를 변환할 수 없음,주소를 변환할 수 없음
", ",주소를 변환할 수 없음,주소를 변환할 수 없음
", ",주소를 변환할 수 없음,주소를 변환할 수 없음
", ",주소를 변환할 수 없음,주소를 변환할 수 없음
", ",주소를 변환할 수 없음,주소를 변환할 수 없음
", ",주소를 변환할 수 없음,주소를 변환할 수 없음
", ",주소를 변환할 수 없음,주소를 변환할 수 없음
", ",주소를 변환할 수 없음,주소를 변환할 수 없음
", ",주소를 변환할 수 없음,주소를 변환할 수 없음
", ",주소를 변환할 수 없음,주소를 변환할 수 없음
", ",주소를 변환할 수 없음,주소를 변환할 수 없음
", ",주소를 변환할 수 없음,주소를 변환할 수 없음
", ",주소를 변환할 수 없음,주소를 변환할 수 없음
", ",주소를 변환할 수 없음,주소를 변환할 수 없음
", ",주소를 변환할 수 없음,주소를 변환할 수 없음
", ",주소를 변환할 수 없음,주소를 변환할 수 없음
", ",주소를 변환할 수 없음,주소를 변환할 수 없음
", ",주소를 변환할 수 없음,주소를 변환할 수 없음
", ",주소를 변환할 수 없음,주소를 변환할 수 없음
", ",주소를 변환할 수 없음,주소를 변환할 수 없음
", ",주소를 변환할 수 없음,주소를 변환할 수 없음
", ",주소를 변환할 수 없음,주소를 변환할 수 없음
", ",주소를 변환할 수 없음,주소를 변환할 수 없음
", ",주소를 변환할 수 없음,주소를 변환할 수 없음
", ",주소를 변환할 수 없음,주소를 변환할 수 없음
", ",주소를 변환할 수 없음,주소를 변환할 수 없음
", ",주소를 변환할 수 없음,주소를 변환할 수 없음
", ",주소를 변환할 수 없음,주소를 변환할 수 없음
", ",주소를 변환할 수 없음,주소를 변환할 수 없음
", ",주소를 변환할 수 없음,주소를 변환할 수 없음
", ",주소를 변환할 수 없음,주소를 변환할 수 없음
", ",주소를 변환할 수 없음,주소를 변환할 수 없음
", ",주소를 변환할 수 없음,주소를 변환할 수 없음
", ",주소를 변환할 수 없음,주소를 변환할 수 없음
", ",주소를 변환할 수 없음,주소를 변환할 수 없음
", ",주소를 변환할 수 없음,주소를 변환할 수 없음
", ",주소를 변환할 수 없음,주소를 변환할 수 없음
", ",주소를 변환할 수 없음,주소를 변환할 수 없음
", ",주소를 변환할 수 없음,주소를 변환할 수 없음
", ",주소를 변환할 수 없음,주소를 변환할 수 없음
", ",주소를 변환할 수 없음,주소를 변환할 수 없음
", ",주소를 변환할 수 없음,주소를 변환할 수 없음
", ",주소를 변환할 수 없음,주소를 변환할 수 없음
", ",주소를 변환할 수 없음,주소를 변환할 수 없음
", ",주소를 변환할 수 없음,주소를 변환할 수 없음
", ",주소를 변환할 수 없음,주소를 변환할 수 없음
", ",주소를 변환할 수 없음,주소를 변환할 수 없음
", ",주소를 변환할 수 없음,주소를 변환할 수 없음
", ",주소를 변환할 수 없음,주소를 변환할 수 없음
", ",주소를 변환할 수 없음,주소를 변환할 수 없음
", ",주소를 변환할 수 없음,주소를 변환할 수 없음
", ",주소를 변환할 수 없음,주소를 변환할 수 없음
", ",주소를 변환할 수 없음,주소를 변환할 수 없음
", ",주소를 변환할 수 없음,주소를 변환할 수 없음
", ",주소를 변환할 수 없음,주소를 변환할 수 없음
", ",주소를 변환할 수 없음,주소를 변환할 수 없음
", ",주소를 변환할 수 없음,주소를 변환할 수 없음
", ",주소를 변환할 수 없음,주소를 변환할 수 없음
", ",주소를 변환할 수 없음,주소를 변환할 수 없음
", ",주소를 변환할 수 없음,주소를 변환할 수 없음
", ",주소를 변환할 수 없음,주소를 변환할 수 없음
", ",주소를 변환할 수 없음,주소를 변환할 수 없음
", ",주소를 변환할 수 없음,주소를 변환할 수 없음
", ",주소를 변환할 수 없음,주소를 변환할 수 없음
", ",주소를 변환할 수 없음,주소를 변환할 수 없음
", ",주소를 변환할 수 없음,주소를 변환할 수 없음
", ",주소를 변환할 수 없음,주소를 변환할 수 없음
", ",주소를 변환할 수 없음,주소를 변환할 수 없음
", ",주소를 변환할 수 없음,주소를 변환할 수 없음
", ",주소를 변환할 수 없음,주소를 변환할 수 없음
", ",주소를 변환할 수 없음,주소를 변환할 수 없음
", ",주소를 변환할 수 없음,주소를 변환할 수 없음
", ",주소를 변환할 수 없음,주소를 변환할 수 없음
", ",주소를 변환할 수 없음,주소를 변환할 수 없음
", ",주소를 변환할 수 없음,주소를 변환할 수 없음
", ",주소를 변환할 수 없음,주소를 변환할 수 없음
", ",주소를 변환할 수 없음,주소를 변환할 수 없음
", ",주소를 변환할 수 없음,주소를 변환할 수 없음
", ",주소를 변환할 수 없음,주소를 변환할 수 없음
", ",주소를 변환할 수 없음,주소를 변환할 수 없음
", ",주소를 변환할 수 없음,주소를 변환할 수 없음
", ",주소를 변환할 수 없음,주소를 변환할 수 없음
", ",주소를 변환할 수 없음,주소를 변환할 수 없음
", ",주소를 변환할 수 없음,주소를 변환할 수 없음
", ",주소를 변환할 수 없음,주소를 변환할 수 없음
", ",주소를 변환할 수 없음,주소를 변환할 수 없음
", ",주소를 변환할 수 없음,주소를 변환할 수 없음
", ",주소를 변환할 수 없음,주소를 변환할 수 없음
", ",주소를 변환할 수 없음,주소를 변환할 수 없음
", ",주소를 변환할 수 없음,주소를 변환할 수 없음
", ",주소를 변환할 수 없음,주소를 변환할 수 없음
", ",주소를 변환할 수 없음,주소를 변환할 수 없음
", ",주소를 변환할 수 없음,주소를 변환할 수 없음
", ",주소를 변환할 수 없음,주소를 변환할 수 없음
", ",주소를 변환할 수 없음,주소를 변환할 수 없음
", ",주소를 변환할 수 없음,주소를 변환할 수 없음
", ",주소를 변환할 수 없음,주소를 변환할 수 없음
", ",주소를 변환할 수 없음,주소를 변환할 수 없음
", ",주소를 변환할 수 없음,주소를 변환할 수 없음
", ",주소를 변환할 수 없음,주소를 변환할 수 없음
", ",주소를 변환할 수 없음,주소를 변환할 수 없음
", ",주소를 변환할 수 없음,주소를 변환할 수 없음
", ",주소를 변환할 수 없음,주소를 변환할 수 없음
", ",주소를 변환할 수 없음,주소를 변환할 수 없음
", ",주소를 변환할 수 없음,주소를 변환할 수 없음
", ",주소를 변환할 수 없음,주소를 변환할 수 없음
", ",주소를 변환할 수 없음,주소를 변환할 수 없음
", ",주소를 변환할 수 없음,주소를 변환할 수 없음
", ",주소를 변환할 수 없음,주소를 변환할 수 없음
", ",주소를 변환할 수 없음,주소를 변환할 수 없음
", ",주소를 변환할 수 없음,주소를 변환할 수 없음
", ",주소를 변환할 수 없음,주소를 변환할 수 없음
", ",주소를 변환할 수 없음,주소를 변환할 수 없음
", ",주소를 변환할 수 없음,주소를 변환할 수 없음
", ",주소를 변환할 수 없음,주소를 변환할 수 없음
", ",주소를 변환할 수 없음,주소를 변환할 수 없음
", ",주소를 변환할 수 없음,주소를 변환할 수 없음
", ",주소를 변환할 수 없음,주소를 변환할 수 없음
", ",주소를 변환할 수 없음,주소를 변환할 수 없음
", ",주소를 변환할 수 없음,주소를 변환할 수 없음
", ",주소를 변환할 수 없음,주소를 변환할 수 없음
", ",주소를 변환할 수 없음,주소를 변환할 수 없음
", ",주소를 변환할 수 없음,주소를 변환할 수 없음
", ",주소를 변환할 수 없음,주소를 변환할 수 없음
", ",주소를 변환할 수 없음,주소를 변환할 수 없음
", ",주소를 변환할 수 없음,주소를 변환할 수 없음
", ",주소를 변환할 수 없음,주소를 변환할 수 없음
", ",주소를 변환할 수 없음,주소를 변환할 수 없음
", ",주소를 변환할 수 없음,주소를 변환할 수 없음
", ",주소를 변환할 수 없음,주소를 변환할 수 없음
", ",주소를 변환할 수 없음,주소를 변환할 수 없음
", ",주소를 변환할 수 없음,주소를 변환할 수 없음
", ",주소를 변환할 수 없음,주소를 변환할 수 없음
", ",주소를 변환할 수 없음,주소를 변환할 수 없음
", ",주소를 변환할 수 없음,주소를 변환할 수 없음
", ",주소를 변환할 수 없음,주소를 변환할 수 없음
", ",주소를 변환할 수 없음,주소를 변환할 수 없음
", ",주소를 변환할 수 없음,주소를 변환할 수 없음
", ",주소를 변환할 수 없음,주소를 변환할 수 없음
", ",주소를 변환할 수 없음,주소를 변환할 수 없음
", ",주소를 변환할 수 없음,주소를 변환할 수 없음
", ",주소를 변환할 수 없음,주소를 변환할 수 없음
", ",주소를 변환할 수 없음,주소를 변환할 수 없음
", ",주소를 변환할 수 없음,주소를 변환할 수 없음
", ",주소를 변환할 수 없음,주소를 변환할 수 없음
", ",주소를 변환할 수 없음,주소를 변환할 수 없음
", ",주소를 변환할 수 없음,주소를 변환할 수 없음
", ",주소를 변환할 수 없음,주소를 변환할 수 없음
", ",주소를 변환할 수 없음,주소를 변환할 수 없음
", ",주소를 변환할 수 없음,주소를 변환할 수 없음
", ",주소를 변환할 수 없음,주소를 변환할 수 없음
", ",주소를 변환할 수 없음,주소를 변환할 수 없음
", ",주소를 변환할 수 없음,주소를 변환할 수 없음
", ",주소를 변환할 수 없음,주소를 변환할 수 없음
", ",주소를 변환할 수 없음,주소를 변환할 수 없음
", ",주소를 변환할 수 없음,주소를 변환할 수 없음
", ",주소를 변환할 수 없음,주소를 변환할 수 없음
", ",주소를 변환할 수 없음,주소를 변환할 수 없음
", ",주소를 변환할 수 없음,주소를 변환할 수 없음
", ",주소를 변환할 수 없음,주소를 변환할 수 없음
", ",주소를 변환할 수 없음,주소를 변환할 수 없음
", ",주소를 변환할 수 없음,주소를 변환할 수 없음
", ",주소를 변환할 수 없음,주소를 변환할 수 없음
", ",주소를 변환할 수 없음,주소를 변환할 수 없음
", ",주소를 변환할 수 없음,주소를 변환할 수 없음
", ",주소를 변환할 수 없음,주소를 변환할 수 없음
", ",주소를 변환할 수 없음,주소를 변환할 수 없음
", ",주소를 변환할 수 없음,주소를 변환할 수 없음
", ",주소를 변환할 수 없음,주소를 변환할 수 없음
", ",주소를 변환할 수 없음,주소를 변환할 수 없음
", ",주소를 변환할 수 없음,주소를 변환할 수 없음
", ",주소를 변환할 수 없음,주소를 변환할 수 없음
", ",주소를 변환할 수 없음,주소를 변환할 수 없음
", ",주소를 변환할 수 없음,주소를 변환할 수 없음
", ",주소를 변환할 수 없음,주소를 변환할 수 없음
", ",주소를 변환할 수 없음,주소를 변환할 수 없음
", ",주소를 변환할 수 없음,주소를 변환할 수 없음
", ",주소를 변환할 수 없음,주소를 변환할 수 없음
", ",주소를 변환할 수 없음,주소를 변환할 수 없음
", ",주소를 변환할 수 없음,주소를 변환할 수 없음
", ",주소를 변환할 수 없음,주소를 변환할 수 없음
", ",주소를 변환할 수 없음,주소를 변환할 수 없음
", ",주소를 변환할 수 없음,주소를 변환할 수 없음
", ",주소를 변환할 수 없음,주소를 변환할 수 없음
", ",주소를 변환할 수 없음,주소를 변환할 수 없음
", ",주소를 변환할 수 없음,주소를 변환할 수 없음
", ",주소를 변환할 수 없음,주소를 변환할 수 없음
", ",주소를 변환할 수 없음,주소를 변환할 수 없음
", ",주소를 변환할 수 없음,주소를 변환할 수 없음
", ",주소를 변환할 수 없음,주소를 변환할 수 없음
", ",주소를 변환할 수 없음,주소를 변환할 수 없음
", ",주소를 변환할 수 없음,주소를 변환할 수 없음
", ",주소를 변환할 수 없음,주소를 변환할 수 없음
", ",주소를 변환할 수 없음,주소를 변환할 수 없음
", ",주소를 변환할 수 없음,주소를 변환할 수 없음
", ",주소를 변환할 수 없음,주소를 변환할 수 없음
", ",주소를 변환할 수 없음,주소를 변환할 수 없음
", ",주소를 변환할 수 없음,주소를 변환할 수 없음
", ",주소를 변환할 수 없음,주소를 변환할 수 없음
", ",주소를 변환할 수 없음,주소를 변환할 수 없음
", ",주소를 변환할 수 없음,주소를 변환할 수 없음
", ",주소를 변환할 수 없음,주소를 변환할 수 없음
", ",주소를 변환할 수 없음,주소를 변환할 수 없음
", ",주소를 변환할 수 없음,주소를 변환할 수 없음
", ",주소를 변환할 수 없음,주소를 변환할 수 없음
", ",주소를 변환할 수 없음,주소를 변환할 수 없음
", ",주소를 변환할 수 없음,주소를 변환할 수 없음
", ",주소를 변환할 수 없음,주소를 변환할 수 없음
", ",주소를 변환할 수 없음,주소를 변환할 수 없음
", ",주소를 변환할 수 없음,주소를 변환할 수 없음
", ",주소를 변환할 수 없음,주소를 변환할 수 없음
", ",주소를 변환할 수 없음,주소를 변환할 수 없음
", ",주소를 변환할 수 없음,주소를 변환할 수 없음
", ",주소를 변환할 수 없음,주소를 변환할 수 없음
", ",주소를 변환할 수 없음,주소를 변환할 수 없음
", ",주소를 변환할 수 없음,주소를 변환할 수 없음
", ",주소를 변환할 수 없음,주소를 변환할 수 없음
", ",주소를 변환할 수 없음,주소를 변환할 수 없음
", ",주소를 변환할 수 없음,주소를 변환할 수 없음
", ",주소를 변환할 수 없음,주소를 변환할 수 없음
", ",주소를 변환할 수 없음,주소를 변환할 수 없음
", ",주소를 변환할 수 없음,주소를 변환할 수 없음
", ",주소를 변환할 수 없음,주소를 변환할 수 없음
", ",주소를 변환할 수 없음,주소를 변환할 수 없음
", ",주소를 변환할 수 없음,주소를 변환할 수 없음
", ",주소를 변환할 수 없음,주소를 변환할 수 없음
", ",주소를 변환할 수 없음,주소를 변환할 수 없음
", ",주소를 변환할 수 없음,주소를 변환할 수 없음
", ",주소를 변환할 수 없음,주소를 변환할 수 없음
", ",주소를 변환할 수 없음,주소를 변환할 수 없음
", ",주소를 변환할 수 없음,주소를 변환할 수 없음
", ",주소를 변환할 수 없음,주소를 변환할 수 없음
", ",주소를 변환할 수 없음,주소를 변환할 수 없음
", ",주소를 변환할 수 없음,주소를 변환할 수 없음
", ",주소를 변환할 수 없음,주소를 변환할 수 없음
", ",주소를 변환할 수 없음,주소를 변환할 수 없음
", ",주소를 변환할 수 없음,주소를 변환할 수 없음
", ",주소를 변환할 수 없음,주소를 변환할 수 없음
", ",주소를 변환할 수 없음,주소를 변환할 수 없음
", ",주소를 변환할 수 없음,주소를 변환할 수 없음
", ",주소를 변환할 수 없음,주소를 변환할 수 없음
", ",주소를 변환할 수 없음,주소를 변환할 수 없음
", ",주소를 변환할 수 없음,주소를 변환할 수 없음
", ",주소를 변환할 수 없음,주소를 변환할 수 없음
", ",주소를 변환할 수 없음,주소를 변환할 수 없음
", ",주소를 변환할 수 없음,주소를 변환할 수 없음
", ",주소를 변환할 수 없음,주소를 변환할 수 없음
", ",주소를 변환할 수 없음,주소를 변환할 수 없음
", ",주소를 변환할 수 없음,주소를 변환할 수 없음
", ",주소를 변환할 수 없음,주소를 변환할 수 없음
", ",주소를 변환할 수 없음,주소를 변환할 수 없음
", ",주소를 변환할 수 없음,주소를 변환할 수 없음
", ",주소를 변환할 수 없음,주소를 변환할 수 없음
", ",주소를 변환할 수 없음,주소를 변환할 수 없음
", ",주소를 변환할 수 없음,주소를 변환할 수 없음
", ",주소를 변환할 수 없음,주소를 변환할 수 없음
", ",주소를 변환할 수 없음,주소를 변환할 수 없음
", ",주소를 변환할 수 없음,주소를 변환할 수 없음
", ",주소를 변환할 수 없음,주소를 변환할 수 없음
", ",주소를 변환할 수 없음,주소를 변환할 수 없음
", ",주소를 변환할 수 없음,주소를 변환할 수 없음
", ",주소를 변환할 수 없음,주소를 변환할 수 없음
", ",주소를 변환할 수 없음,주소를 변환할 수 없음
", ",주소를 변환할 수 없음,주소를 변환할 수 없음
", ",주소를 변환할 수 없음,주소를 변환할 수 없음
", ",주소를 변환할 수 없음,주소를 변환할 수 없음
", ",주소를 변환할 수 없음,주소를 변환할 수 없음
", ",주소를 변환할 수 없음,주소를 변환할 수 없음
", ",주소를 변환할 수 없음,주소를 변환할 수 없음
", ",주소를 변환할 수 없음,주소를 변환할 수 없음
", ",주소를 변환할 수 없음,주소를 변환할 수 없음
", ",주소를 변환할 수 없음,주소를 변환할 수 없음
", ",주소를 변환할 수 없음,주소를 변환할 수 없음
", ",주소를 변환할 수 없음,주소를 변환할 수 없음
", ",주소를 변환할 수 없음,주소를 변환할 수 없음
", ",주소를 변환할 수 없음,주소를 변환할 수 없음
", ",주소를 변환할 수 없음,주소를 변환할 수 없음
", ",주소를 변환할 수 없음,주소를 변환할 수 없음
", ",주소를 변환할 수 없음,주소를 변환할 수 없음
", ",주소를 변환할 수 없음,주소를 변환할 수 없음
", ",주소를 변환할 수 없음,주소를 변환할 수 없음
", ",주소를 변환할 수 없음,주소를 변환할 수 없음
", ",주소를 변환할 수 없음,주소를 변환할 수 없음
", ",주소를 변환할 수 없음,주소를 변환할 수 없음
", ",주소를 변환할 수 없음,주소를 변환할 수 없음
", ",주소를 변환할 수 없음,주소를 변환할 수 없음
", ",주소를 변환할 수 없음,주소를 변환할 수 없음
", ",주소를 변환할 수 없음,주소를 변환할 수 없음
", ",주소를 변환할 수 없음,주소를 변환할 수 없음
", nan, ",주소를 변환할 수 없음,주소를 변환할 수 없음
", ",주소를 변환할 수 없음,주소를 변환할 수 없음
", ",주소를 변환할 수 없음,주소를 변환할 수 없음
", ",주소를 변환할 수 없음,주소를 변환할 수 없음
", ",주소를 변환할 수 없음,주소를 변환할 수 없음
", ",주소를 변환할 수 없음,주소를 변환할 수 없음
", ",주소를 변환할 수 없음,주소를 변환할 수 없음
", ",주소를 변환할 수 없음,주소를 변환할 수 없음
", ",주소를 변환할 수 없음,주소를 변환할 수 없음
", ",주소를 변환할 수 없음,주소를 변환할 수 없음
", ",주소를 변환할 수 없음,주소를 변환할 수 없음
", ",주소를 변환할 수 없음,주소를 변환할 수 없음
", ",주소를 변환할 수 없음,주소를 변환할 수 없음
", ",주소를 변환할 수 없음,주소를 변환할 수 없음
", ",주소를 변환할 수 없음,주소를 변환할 수 없음
", ",주소를 변환할 수 없음,주소를 변환할 수 없음
", ",주소를 변환할 수 없음,주소를 변환할 수 없음
", ",주소를 변환할 수 없음,주소를 변환할 수 없음
", ",주소를 변환할 수 없음,주소를 변환할 수 없음
", ",주소를 변환할 수 없음,주소를 변환할 수 없음
", ",주소를 변환할 수 없음,주소를 변환할 수 없음
", ",주소를 변환할 수 없음,주소를 변환할 수 없음
", ",주소를 변환할 수 없음,주소를 변환할 수 없음
", ",주소를 변환할 수 없음,주소를 변환할 수 없음
", ",주소를 변환할 수 없음,주소를 변환할 수 없음
", ",주소를 변환할 수 없음,주소를 변환할 수 없음
", ",주소를 변환할 수 없음,주소를 변환할 수 없음
", ",주소를 변환할 수 없음,주소를 변환할 수 없음
", ",주소를 변환할 수 없음,주소를 변환할 수 없음
", ",주소를 변환할 수 없음,주소를 변환할 수 없음
", ",주소를 변환할 수 없음,주소를 변환할 수 없음
", ",주소를 변환할 수 없음,주소를 변환할 수 없음
", ",주소를 변환할 수 없음,주소를 변환할 수 없음
", ",주소를 변환할 수 없음,주소를 변환할 수 없음
", ",주소를 변환할 수 없음,주소를 변환할 수 없음
", ",주소를 변환할 수 없음,주소를 변환할 수 없음
", ",주소를 변환할 수 없음,주소를 변환할 수 없음
", ",주소를 변환할 수 없음,주소를 변환할 수 없음
", ",주소를 변환할 수 없음,주소를 변환할 수 없음
", ",주소를 변환할 수 없음,주소를 변환할 수 없음
", ",주소를 변환할 수 없음,주소를 변환할 수 없음
", ",주소를 변환할 수 없음,주소를 변환할 수 없음
", ",주소를 변환할 수 없음,주소를 변환할 수 없음
", ",주소를 변환할 수 없음,주소를 변환할 수 없음
", ",주소를 변환할 수 없음,주소를 변환할 수 없음
", ",주소를 변환할 수 없음,주소를 변환할 수 없음
", ",주소를 변환할 수 없음,주소를 변환할 수 없음
", ",주소를 변환할 수 없음,주소를 변환할 수 없음
", ",주소를 변환할 수 없음,주소를 변환할 수 없음
", ",주소를 변환할 수 없음,주소를 변환할 수 없음
", ",주소를 변환할 수 없음,주소를 변환할 수 없음
", ",주소를 변환할 수 없음,주소를 변환할 수 없음
", ",주소를 변환할 수 없음,주소를 변환할 수 없음
", ",주소를 변환할 수 없음,주소를 변환할 수 없음
", ",주소를 변환할 수 없음,주소를 변환할 수 없음
", ",주소를 변환할 수 없음,주소를 변환할 수 없음
", ",주소를 변환할 수 없음,주소를 변환할 수 없음
", ",주소를 변환할 수 없음,주소를 변환할 수 없음
", ",주소를 변환할 수 없음,주소를 변환할 수 없음
", ",주소를 변환할 수 없음,주소를 변환할 수 없음
", ",주소를 변환할 수 없음,주소를 변환할 수 없음
", ",주소를 변환할 수 없음,주소를 변환할 수 없음
", ",주소를 변환할 수 없음,주소를 변환할 수 없음
", ",주소를 변환할 수 없음,주소를 변환할 수 없음
", ",주소를 변환할 수 없음,주소를 변환할 수 없음
", ",주소를 변환할 수 없음,주소를 변환할 수 없음
", ",주소를 변환할 수 없음,주소를 변환할 수 없음
", ",주소를 변환할 수 없음,주소를 변환할 수 없음
", ",주소를 변환할 수 없음,주소를 변환할 수 없음
", ",주소를 변환할 수 없음,주소를 변환할 수 없음
", ",주소를 변환할 수 없음,주소를 변환할 수 없음
", ",주소를 변환할 수 없음,주소를 변환할 수 없음
", ",주소를 변환할 수 없음,주소를 변환할 수 없음
", ",주소를 변환할 수 없음,주소를 변환할 수 없음
", ",주소를 변환할 수 없음,주소를 변환할 수 없음
", ",주소를 변환할 수 없음,주소를 변환할 수 없음
", ",주소를 변환할 수 없음,주소를 변환할 수 없음
", ",주소를 변환할 수 없음,주소를 변환할 수 없음
", ",주소를 변환할 수 없음,주소를 변환할 수 없음
", ",주소를 변환할 수 없음,주소를 변환할 수 없음
", ",주소를 변환할 수 없음,주소를 변환할 수 없음
", ",주소를 변환할 수 없음,주소를 변환할 수 없음
", ",주소를 변환할 수 없음,주소를 변환할 수 없음
", ",주소를 변환할 수 없음,주소를 변환할 수 없음
", ",주소를 변환할 수 없음,주소를 변환할 수 없음
", ",주소를 변환할 수 없음,주소를 변환할 수 없음
", ",주소를 변환할 수 없음,주소를 변환할 수 없음
", ",주소를 변환할 수 없음,주소를 변환할 수 없음
", ",주소를 변환할 수 없음,주소를 변환할 수 없음
", ",주소를 변환할 수 없음,주소를 변환할 수 없음
", ",주소를 변환할 수 없음,주소를 변환할 수 없음
", ",주소를 변환할 수 없음,주소를 변환할 수 없음
", ",주소를 변환할 수 없음,주소를 변환할 수 없음
", ",주소를 변환할 수 없음,주소를 변환할 수 없음
", ",주소를 변환할 수 없음,주소를 변환할 수 없음
", ",주소를 변환할 수 없음,주소를 변환할 수 없음
", ",주소를 변환할 수 없음,주소를 변환할 수 없음
", ",주소를 변환할 수 없음,주소를 변환할 수 없음
", ",주소를 변환할 수 없음,주소를 변환할 수 없음
", ",주소를 변환할 수 없음,주소를 변환할 수 없음
", ",주소를 변환할 수 없음,주소를 변환할 수 없음
", ",주소를 변환할 수 없음,주소를 변환할 수 없음
", ",주소를 변환할 수 없음,주소를 변환할 수 없음
", ",주소를 변환할 수 없음,주소를 변환할 수 없음
", ",주소를 변환할 수 없음,주소를 변환할 수 없음
", ",주소를 변환할 수 없음,주소를 변환할 수 없음
", ",주소를 변환할 수 없음,주소를 변환할 수 없음
", ",주소를 변환할 수 없음,주소를 변환할 수 없음
", ",주소를 변환할 수 없음,주소를 변환할 수 없음
", ",주소를 변환할 수 없음,주소를 변환할 수 없음
", ",주소를 변환할 수 없음,주소를 변환할 수 없음
", ",주소를 변환할 수 없음,주소를 변환할 수 없음
", ",주소를 변환할 수 없음,주소를 변환할 수 없음
", ",주소를 변환할 수 없음,주소를 변환할 수 없음
", ",주소를 변환할 수 없음,주소를 변환할 수 없음
", ",주소를 변환할 수 없음,주소를 변환할 수 없음
", ",주소를 변환할 수 없음,주소를 변환할 수 없음
", ",주소를 변환할 수 없음,주소를 변환할 수 없음
", ",주소를 변환할 수 없음,주소를 변환할 수 없음
", ",주소를 변환할 수 없음,주소를 변환할 수 없음
", ",주소를 변환할 수 없음,주소를 변환할 수 없음
", ",주소를 변환할 수 없음,주소를 변환할 수 없음
", ",주소를 변환할 수 없음,주소를 변환할 수 없음
", ",주소를 변환할 수 없음,주소를 변환할 수 없음
", ",주소를 변환할 수 없음,주소를 변환할 수 없음
", ",주소를 변환할 수 없음,주소를 변환할 수 없음
", ",주소를 변환할 수 없음,주소를 변환할 수 없음
", ",주소를 변환할 수 없음,주소를 변환할 수 없음
", ",주소를 변환할 수 없음,주소를 변환할 수 없음
", ",주소를 변환할 수 없음,주소를 변환할 수 없음
", ",주소를 변환할 수 없음,주소를 변환할 수 없음
", ",주소를 변환할 수 없음,주소를 변환할 수 없음
", ",주소를 변환할 수 없음,주소를 변환할 수 없음
", ",주소를 변환할 수 없음,주소를 변환할 수 없음
", ",주소를 변환할 수 없음,주소를 변환할 수 없음
", ",주소를 변환할 수 없음,주소를 변환할 수 없음
", ",주소를 변환할 수 없음,주소를 변환할 수 없음
", ",주소를 변환할 수 없음,주소를 변환할 수 없음
", ",주소를 변환할 수 없음,주소를 변환할 수 없음
", ",주소를 변환할 수 없음,주소를 변환할 수 없음
", ",주소를 변환할 수 없음,주소를 변환할 수 없음
", ",주소를 변환할 수 없음,주소를 변환할 수 없음
", ",주소를 변환할 수 없음,주소를 변환할 수 없음
", ",주소를 변환할 수 없음,주소를 변환할 수 없음
", ",주소를 변환할 수 없음,주소를 변환할 수 없음
", ",주소를 변환할 수 없음,주소를 변환할 수 없음
", ",주소를 변환할 수 없음,주소를 변환할 수 없음
", ",주소를 변환할 수 없음,주소를 변환할 수 없음
", ",주소를 변환할 수 없음,주소를 변환할 수 없음
", ",주소를 변환할 수 없음,주소를 변환할 수 없음
", ",주소를 변환할 수 없음,주소를 변환할 수 없음
", ",주소를 변환할 수 없음,주소를 변환할 수 없음
", ",주소를 변환할 수 없음,주소를 변환할 수 없음
", nan, ",주소를 변환할 수 없음,주소를 변환할 수 없음
", ",주소를 변환할 수 없음,주소를 변환할 수 없음
", ",주소를 변환할 수 없음,주소를 변환할 수 없음
", ",주소를 변환할 수 없음,주소를 변환할 수 없음
", ",주소를 변환할 수 없음,주소를 변환할 수 없음
", ",주소를 변환할 수 없음,주소를 변환할 수 없음
", ",주소를 변환할 수 없음,주소를 변환할 수 없음
", ",주소를 변환할 수 없음,주소를 변환할 수 없음
", ",주소를 변환할 수 없음,주소를 변환할 수 없음
", ",주소를 변환할 수 없음,주소를 변환할 수 없음
", ",주소를 변환할 수 없음,주소를 변환할 수 없음
", ",주소를 변환할 수 없음,주소를 변환할 수 없음
", ",주소를 변환할 수 없음,주소를 변환할 수 없음
", ",주소를 변환할 수 없음,주소를 변환할 수 없음
", ",주소를 변환할 수 없음,주소를 변환할 수 없음
", ",주소를 변환할 수 없음,주소를 변환할 수 없음
", ",주소를 변환할 수 없음,주소를 변환할 수 없음
", ",주소를 변환할 수 없음,주소를 변환할 수 없음
", ",주소를 변환할 수 없음,주소를 변환할 수 없음
", ",주소를 변환할 수 없음,주소를 변환할 수 없음
", ",주소를 변환할 수 없음,주소를 변환할 수 없음
", ",주소를 변환할 수 없음,주소를 변환할 수 없음
", ",주소를 변환할 수 없음,주소를 변환할 수 없음
", ",주소를 변환할 수 없음,주소를 변환할 수 없음
", ",주소를 변환할 수 없음,주소를 변환할 수 없음
", ",주소를 변환할 수 없음,주소를 변환할 수 없음
", ",주소를 변환할 수 없음,주소를 변환할 수 없음
", ",주소를 변환할 수 없음,주소를 변환할 수 없음
", ",주소를 변환할 수 없음,주소를 변환할 수 없음
", ",주소를 변환할 수 없음,주소를 변환할 수 없음
", ",주소를 변환할 수 없음,주소를 변환할 수 없음
", ",주소를 변환할 수 없음,주소를 변환할 수 없음
", ",주소를 변환할 수 없음,주소를 변환할 수 없음
", ",주소를 변환할 수 없음,주소를 변환할 수 없음
", ",주소를 변환할 수 없음,주소를 변환할 수 없음
", ",주소를 변환할 수 없음,주소를 변환할 수 없음
", ",주소를 변환할 수 없음,주소를 변환할 수 없음
", ",주소를 변환할 수 없음,주소를 변환할 수 없음
", ",주소를 변환할 수 없음,주소를 변환할 수 없음
", ",주소를 변환할 수 없음,주소를 변환할 수 없음
", ",주소를 변환할 수 없음,주소를 변환할 수 없음
", ",주소를 변환할 수 없음,주소를 변환할 수 없음
", ",주소를 변환할 수 없음,주소를 변환할 수 없음
", ",주소를 변환할 수 없음,주소를 변환할 수 없음
", ",주소를 변환할 수 없음,주소를 변환할 수 없음
", ",주소를 변환할 수 없음,주소를 변환할 수 없음
", ",주소를 변환할 수 없음,주소를 변환할 수 없음
", ",주소를 변환할 수 없음,주소를 변환할 수 없음
", ",주소를 변환할 수 없음,주소를 변환할 수 없음
", ",주소를 변환할 수 없음,주소를 변환할 수 없음
", ",주소를 변환할 수 없음,주소를 변환할 수 없음
", ",주소를 변환할 수 없음,주소를 변환할 수 없음
", ",주소를 변환할 수 없음,주소를 변환할 수 없음
", ",주소를 변환할 수 없음,주소를 변환할 수 없음
", ",주소를 변환할 수 없음,주소를 변환할 수 없음
", ",주소를 변환할 수 없음,주소를 변환할 수 없음
", ",주소를 변환할 수 없음,주소를 변환할 수 없음
", ",주소를 변환할 수 없음,주소를 변환할 수 없음
", ",주소를 변환할 수 없음,주소를 변환할 수 없음
", ",주소를 변환할 수 없음,주소를 변환할 수 없음
", ",주소를 변환할 수 없음,주소를 변환할 수 없음
", ",주소를 변환할 수 없음,주소를 변환할 수 없음
", ",주소를 변환할 수 없음,주소를 변환할 수 없음
", ",주소를 변환할 수 없음,주소를 변환할 수 없음
", ",주소를 변환할 수 없음,주소를 변환할 수 없음
", ",주소를 변환할 수 없음,주소를 변환할 수 없음
", ",주소를 변환할 수 없음,주소를 변환할 수 없음
", ",주소를 변환할 수 없음,주소를 변환할 수 없음
", ",주소를 변환할 수 없음,주소를 변환할 수 없음
", ",주소를 변환할 수 없음,주소를 변환할 수 없음
", ",주소를 변환할 수 없음,주소를 변환할 수 없음
", ",주소를 변환할 수 없음,주소를 변환할 수 없음
", ",주소를 변환할 수 없음,주소를 변환할 수 없음
", ",주소를 변환할 수 없음,주소를 변환할 수 없음
", ",주소를 변환할 수 없음,주소를 변환할 수 없음
", ",주소를 변환할 수 없음,주소를 변환할 수 없음
", ",주소를 변환할 수 없음,주소를 변환할 수 없음
", ",주소를 변환할 수 없음,주소를 변환할 수 없음
", ",주소를 변환할 수 없음,주소를 변환할 수 없음
", ",주소를 변환할 수 없음,주소를 변환할 수 없음
", ",주소를 변환할 수 없음,주소를 변환할 수 없음
", ",주소를 변환할 수 없음,주소를 변환할 수 없음
", ",주소를 변환할 수 없음,주소를 변환할 수 없음
", ",주소를 변환할 수 없음,주소를 변환할 수 없음
", ",주소를 변환할 수 없음,주소를 변환할 수 없음
", ",주소를 변환할 수 없음,주소를 변환할 수 없음
", ",주소를 변환할 수 없음,주소를 변환할 수 없음
", ",주소를 변환할 수 없음,주소를 변환할 수 없음
", ",주소를 변환할 수 없음,주소를 변환할 수 없음
", ",주소를 변환할 수 없음,주소를 변환할 수 없음
", ",주소를 변환할 수 없음,주소를 변환할 수 없음
", ",주소를 변환할 수 없음,주소를 변환할 수 없음
", ",주소를 변환할 수 없음,주소를 변환할 수 없음
", ",주소를 변환할 수 없음,주소를 변환할 수 없음
", ",주소를 변환할 수 없음,주소를 변환할 수 없음
", ",주소를 변환할 수 없음,주소를 변환할 수 없음
", ",주소를 변환할 수 없음,주소를 변환할 수 없음
", ",주소를 변환할 수 없음,주소를 변환할 수 없음
", ",주소를 변환할 수 없음,주소를 변환할 수 없음
", ",주소를 변환할 수 없음,주소를 변환할 수 없음
", ",주소를 변환할 수 없음,주소를 변환할 수 없음
", ",주소를 변환할 수 없음,주소를 변환할 수 없음
", ",주소를 변환할 수 없음,주소를 변환할 수 없음
", ",주소를 변환할 수 없음,주소를 변환할 수 없음
", ",주소를 변환할 수 없음,주소를 변환할 수 없음
", ",주소를 변환할 수 없음,주소를 변환할 수 없음
", ",주소를 변환할 수 없음,주소를 변환할 수 없음
", ",주소를 변환할 수 없음,주소를 변환할 수 없음
", ",주소를 변환할 수 없음,주소를 변환할 수 없음
", ",주소를 변환할 수 없음,주소를 변환할 수 없음
", ",주소를 변환할 수 없음,주소를 변환할 수 없음
", ",주소를 변환할 수 없음,주소를 변환할 수 없음
", ",주소를 변환할 수 없음,주소를 변환할 수 없음
", ",주소를 변환할 수 없음,주소를 변환할 수 없음
", ",주소를 변환할 수 없음,주소를 변환할 수 없음
", ",주소를 변환할 수 없음,주소를 변환할 수 없음
", ",주소를 변환할 수 없음,주소를 변환할 수 없음
", ",주소를 변환할 수 없음,주소를 변환할 수 없음
", ",주소를 변환할 수 없음,주소를 변환할 수 없음
", ",주소를 변환할 수 없음,주소를 변환할 수 없음
", ",주소를 변환할 수 없음,주소를 변환할 수 없음
", ",주소를 변환할 수 없음,주소를 변환할 수 없음
", ",주소를 변환할 수 없음,주소를 변환할 수 없음
", ",주소를 변환할 수 없음,주소를 변환할 수 없음
", ",주소를 변환할 수 없음,주소를 변환할 수 없음
", ",주소를 변환할 수 없음,주소를 변환할 수 없음
", ",주소를 변환할 수 없음,주소를 변환할 수 없음
", ",주소를 변환할 수 없음,주소를 변환할 수 없음
", ",주소를 변환할 수 없음,주소를 변환할 수 없음
", ",주소를 변환할 수 없음,주소를 변환할 수 없음
", ",주소를 변환할 수 없음,주소를 변환할 수 없음
", ",주소를 변환할 수 없음,주소를 변환할 수 없음
", ",주소를 변환할 수 없음,주소를 변환할 수 없음
", ",주소를 변환할 수 없음,주소를 변환할 수 없음
", ",주소를 변환할 수 없음,주소를 변환할 수 없음
", ",주소를 변환할 수 없음,주소를 변환할 수 없음
", ",주소를 변환할 수 없음,주소를 변환할 수 없음
", ",주소를 변환할 수 없음,주소를 변환할 수 없음
", ",주소를 변환할 수 없음,주소를 변환할 수 없음
", ",주소를 변환할 수 없음,주소를 변환할 수 없음
", ",주소를 변환할 수 없음,주소를 변환할 수 없음
", ",주소를 변환할 수 없음,주소를 변환할 수 없음
", ",주소를 변환할 수 없음,주소를 변환할 수 없음
", ",주소를 변환할 수 없음,주소를 변환할 수 없음
", ",주소를 변환할 수 없음,주소를 변환할 수 없음
", ",주소를 변환할 수 없음,주소를 변환할 수 없음
", ",주소를 변환할 수 없음,주소를 변환할 수 없음
", ",주소를 변환할 수 없음,주소를 변환할 수 없음
", ",주소를 변환할 수 없음,주소를 변환할 수 없음
", ",주소를 변환할 수 없음,주소를 변환할 수 없음
", ",주소를 변환할 수 없음,주소를 변환할 수 없음
", ",주소를 변환할 수 없음,주소를 변환할 수 없음
", ",주소를 변환할 수 없음,주소를 변환할 수 없음
", ",주소를 변환할 수 없음,주소를 변환할 수 없음
", ",주소를 변환할 수 없음,주소를 변환할 수 없음
", ",주소를 변환할 수 없음,주소를 변환할 수 없음
", ",주소를 변환할 수 없음,주소를 변환할 수 없음
", ",주소를 변환할 수 없음,주소를 변환할 수 없음
", ",주소를 변환할 수 없음,주소를 변환할 수 없음
", ",주소를 변환할 수 없음,주소를 변환할 수 없음
", ",주소를 변환할 수 없음,주소를 변환할 수 없음
", ",주소를 변환할 수 없음,주소를 변환할 수 없음
", ",주소를 변환할 수 없음,주소를 변환할 수 없음
", ",주소를 변환할 수 없음,주소를 변환할 수 없음
", ",주소를 변환할 수 없음,주소를 변환할 수 없음
", ",주소를 변환할 수 없음,주소를 변환할 수 없음
", ",주소를 변환할 수 없음,주소를 변환할 수 없음
", ",주소를 변환할 수 없음,주소를 변환할 수 없음
", ",주소를 변환할 수 없음,주소를 변환할 수 없음
", ",주소를 변환할 수 없음,주소를 변환할 수 없음
", ",주소를 변환할 수 없음,주소를 변환할 수 없음
", ",주소를 변환할 수 없음,주소를 변환할 수 없음
", ",주소를 변환할 수 없음,주소를 변환할 수 없음
", ",주소를 변환할 수 없음,주소를 변환할 수 없음
", ",주소를 변환할 수 없음,주소를 변환할 수 없음
", ",주소를 변환할 수 없음,주소를 변환할 수 없음
", ",주소를 변환할 수 없음,주소를 변환할 수 없음
", ",주소를 변환할 수 없음,주소를 변환할 수 없음
", ",주소를 변환할 수 없음,주소를 변환할 수 없음
", ",주소를 변환할 수 없음,주소를 변환할 수 없음
", ",주소를 변환할 수 없음,주소를 변환할 수 없음
", ",주소를 변환할 수 없음,주소를 변환할 수 없음
", ",주소를 변환할 수 없음,주소를 변환할 수 없음
", ",주소를 변환할 수 없음,주소를 변환할 수 없음
", ",주소를 변환할 수 없음,주소를 변환할 수 없음
", ",주소를 변환할 수 없음,주소를 변환할 수 없음
", ",주소를 변환할 수 없음,주소를 변환할 수 없음
", ",주소를 변환할 수 없음,주소를 변환할 수 없음
", ",주소를 변환할 수 없음,주소를 변환할 수 없음
", ",주소를 변환할 수 없음,주소를 변환할 수 없음
", ",주소를 변환할 수 없음,주소를 변환할 수 없음
", ",주소를 변환할 수 없음,주소를 변환할 수 없음
", ",주소를 변환할 수 없음,주소를 변환할 수 없음
", ",주소를 변환할 수 없음,주소를 변환할 수 없음
", ",주소를 변환할 수 없음,주소를 변환할 수 없음
", ",주소를 변환할 수 없음,주소를 변환할 수 없음
", ",주소를 변환할 수 없음,주소를 변환할 수 없음
", ",주소를 변환할 수 없음,주소를 변환할 수 없음
", ",주소를 변환할 수 없음,주소를 변환할 수 없음
", ",주소를 변환할 수 없음,주소를 변환할 수 없음
", ",주소를 변환할 수 없음,주소를 변환할 수 없음
", ",주소를 변환할 수 없음,주소를 변환할 수 없음
", ",주소를 변환할 수 없음,주소를 변환할 수 없음
", ",주소를 변환할 수 없음,주소를 변환할 수 없음
", ",주소를 변환할 수 없음,주소를 변환할 수 없음
", ",주소를 변환할 수 없음,주소를 변환할 수 없음
", ",주소를 변환할 수 없음,주소를 변환할 수 없음
", ",주소를 변환할 수 없음,주소를 변환할 수 없음
", ",주소를 변환할 수 없음,주소를 변환할 수 없음
", ",주소를 변환할 수 없음,주소를 변환할 수 없음
", ",주소를 변환할 수 없음,주소를 변환할 수 없음
", ",주소를 변환할 수 없음,주소를 변환할 수 없음
", ",주소를 변환할 수 없음,주소를 변환할 수 없음
", ",주소를 변환할 수 없음,주소를 변환할 수 없음
", ",주소를 변환할 수 없음,주소를 변환할 수 없음
", ",주소를 변환할 수 없음,주소를 변환할 수 없음
", ",주소를 변환할 수 없음,주소를 변환할 수 없음
", ",주소를 변환할 수 없음,주소를 변환할 수 없음
", ",주소를 변환할 수 없음,주소를 변환할 수 없음
", ",주소를 변환할 수 없음,주소를 변환할 수 없음
", ",주소를 변환할 수 없음,주소를 변환할 수 없음
", ",주소를 변환할 수 없음,주소를 변환할 수 없음
", ",주소를 변환할 수 없음,주소를 변환할 수 없음
", ",주소를 변환할 수 없음,주소를 변환할 수 없음
", ",주소를 변환할 수 없음,주소를 변환할 수 없음
", ",주소를 변환할 수 없음,주소를 변환할 수 없음
", ",주소를 변환할 수 없음,주소를 변환할 수 없음
", ",주소를 변환할 수 없음,주소를 변환할 수 없음
", ",주소를 변환할 수 없음,주소를 변환할 수 없음
", ",주소를 변환할 수 없음,주소를 변환할 수 없음
", ",주소를 변환할 수 없음,주소를 변환할 수 없음
", ",주소를 변환할 수 없음,주소를 변환할 수 없음
", ",주소를 변환할 수 없음,주소를 변환할 수 없음
", ",주소를 변환할 수 없음,주소를 변환할 수 없음
", ",주소를 변환할 수 없음,주소를 변환할 수 없음
", ",주소를 변환할 수 없음,주소를 변환할 수 없음
", ",주소를 변환할 수 없음,주소를 변환할 수 없음
", ",주소를 변환할 수 없음,주소를 변환할 수 없음
", ",주소를 변환할 수 없음,주소를 변환할 수 없음
", ",주소를 변환할 수 없음,주소를 변환할 수 없음
", ",주소를 변환할 수 없음,주소를 변환할 수 없음
", ",주소를 변환할 수 없음,주소를 변환할 수 없음
", ",주소를 변환할 수 없음,주소를 변환할 수 없음
", ",주소를 변환할 수 없음,주소를 변환할 수 없음
", ",주소를 변환할 수 없음,주소를 변환할 수 없음
", ",주소를 변환할 수 없음,주소를 변환할 수 없음
", ",주소를 변환할 수 없음,주소를 변환할 수 없음
", ",주소를 변환할 수 없음,주소를 변환할 수 없음
", ",주소를 변환할 수 없음,주소를 변환할 수 없음
